{
  "region": "busan",
  "updated": "2026-06-29",
  "stations": [
    {"id":"busan_001","name":"釜山站","name_en":"Busan Station","company":"JR","line":["1號線","京釜線"],"zone":"中央區","lat":35.1147,"lng":129.0403,"radius_m":600,"active":true},
    {"id":"busan_002","name":"草梁站","name_en":"Choryang Station","company":"JR","line":["1號線"],"zone":"中央區","lat":35.1083,"lng":129.0425,"radius_m":400,"active":true},
    {"id":"busan_003","name":"多大的站","name_en":"Dadap Station","company":"JR","line":["1號線"],"zone":"沙下區","lat":35.0928,"lng":128.9739,"radius_m":400,"active":true},
    {"id":"busan_004","name":"下端站","name_en":"Hadanchi Station","company":"JR","line":["1號線"],"zone":"沙下區","lat":35.0944,"lng":128.9644,"radius_m":400,"active":true},
    {"id":"busan_005","name":"土城站","name_en":"Tossung Station","company":"JR","line":["1號線"],"zone":"沙下區","lat":35.0869,"lng":128.9503,"radius_m":500,"active":true},
    {"id":"busan_006","name":"溫泉場站","name_en":"Oncheonjang Station","company":"JR","line":["1號線"],"zone":"江西區","lat":35.0811,"lng":128.9397,"radius_m":500,"active":true},
    {"id":"busan_007","name":"伽倻站","name_en":"Gaya Station","company":"JR","line":["1號線"],"zone":"江西區","lat":35.0733,"lng":128.9325,"radius_m":400,"active":true},
    {"id":"busan_008","name":"大渚站","name_en":"Daejeo Station","company":"JR","line":["1號線"],"zone":"江西區","lat":35.0858,"lng":128.9844,"radius_m":500,"active":true},
    {"id":"busan_009","name":"金堂站","name_en":"Geumnam Station","company":"JR","line":["1號線"],"zone":"江西區","lat":35.0786,"lng":128.9667,"radius_m":400,"active":true},
    {"id":"busan_010","name":"冷井站","name_en":"Naengjeong Station","company":"JR","line":["1號線"],"zone":"江西區","lat":35.0683,"lng":128.9564,"radius_m":400,"active":true},
    {"id":"busan_011","name":"江西站","name_en":"Gangseo Station","company":"JR","line":["2號線"],"zone":"江西區","lat":35.0969,"lng":129.0056,"radius_m":500,"active":true},
    {"id":"busan_012","name":"堂里站","name_en":"Dangri Station","company":"JR","line":["2號線"],"zone":"江西區","lat":35.1044,"lng":128.9958,"radius_m":400,"active":true},
    {"id":"busan_013","name":"沙上站","name_en":"Sasang Station","company":"JR","line":["2號線"],"zone":"沙上區","lat":35.1456,"lng":129.0636,"radius_m":600,"active":true},
    {"id":"busan_014","name":"開筆站","name_en":"Gaegeum Station","company":"JR","line":["2號線"],"zone":"沙上區","lat":35.1569,"lng":129.0686,"radius_m":400,"active":true},
    {"id":"busan_015","name":"堅川站","name_en":"Gganbul Station","company":"JR","line":["2號線"],"zone":"沙上區","lat":35.1622,"lng":129.0631,"radius_m":400,"active":true},
    {"id":"busan_016","name":"沙上西站","name_en":"Sasang West Station","company":"JR","line":["2號線"],"zone":"沙上區","lat":35.1519,"lng":129.0550,"radius_m":400,"active":true},
    {"id":"busan_017","name":"三樂站","name_en":"Samgak Station","company":"JR","line":["2號線"],"zone":"沙上區","lat":35.1542,"lng":129.0494,"radius_m":400,"active":true},
    {"id":"busan_018","name":"德川站","name_en":"Deokcheon Station","company":"JR","line":["1號線","2號線"],"zone":"北區","lat":35.1567,"lng":129.0728,"radius_m":600,"active":true},
    {"id":"busan_019","name":"華明站","name_en":"Hwamyeong Station","company":"JR","line":["1號線"],"zone":"北區","lat":35.1653,"lng":129.0811,"radius_m":500,"active":true},
    {"id":"busan_020","name":"龜浦站","name_en":"Gupae Station","company":"JR","line":["1號線"],"zone":"江西區","lat":35.1753,"lng":129.0853,"radius_m":500,"active":true},
    {"id":"busan_021","name":"龜賢站","name_en":"Gugang Station","company":"JR","line":["1號線"],"zone":"江西區","lat":35.1797,"lng":129.0917,"radius_m":400,"active":true},
    {"id":"busan_022","name":"梵魚寺站","name_en":"Beomeosa Station","company":"JR","line":["1號線"],"zone":"北區","lat":35.1878,"lng":129.0631,"radius_m":600,"active":true},
    {"id":"busan_023","name":"石峰站","name_en":"Seokbong Station","company":"JR","line":["1號線"],"zone":"北區","lat":35.1958,"lng":129.0511,"radius_m":400,"active":true},
    {"id":"busan_024","name":"凡內谷站","name_en":"Beomnnae Station","company":"JR","line":["1號線"],"zone":"北區","lat":35.1958,"lng":129.0511,"radius_m":400,"active":true},
    {"id":"busan_025","name":"東釜山站","name_en":"East Busan Station","company":"JR","line":["京釜線"],"zone":"江西區","lat":35.1881,"lng":129.0953,"radius_m":400,"active":true},
    {"id":"busan_026","name":"多大的海水浴場站","name_en":"Dadap Beach Station","company":"JR","line":["1號線"],"zone":"沙下區","lat":35.0928,"lng":128.9739,"radius_m":400,"active":true},
    {"id":"busan_027","name":"札嘎其站","name_en":"Jagalchi Station","company":"Metro","line":["1號線"],"zone":"南浦區","lat":35.0956,"lng":129.0364,"radius_m":500,"active":true},
    {"id":"busan_028","name":"南浦站","name_en":"Nampo Station","company":"Metro","line":["1號線"],"zone":"南浦區","lat":35.1006,"lng":129.0342,"radius_m":700,"active":true},
    {"id":"busan_029","name":"中央站","name_en":"Jungang-dong Station","company":"Metro","line":["1號線"],"zone":"南浦區","lat":35.1047,"lng":129.0336,"radius_m":400,"active":true},
    {"id":"busan_030","name":"大峙站","name_en":"Daeteo Station","company":"Metro","line":["1號線"],"zone":"蓮堤區","lat":35.1097,"lng":129.0358,"radius_m":400,"active":true},
    {"id":"busan_031","name":"釜山鎮站","name_en":"Busanjin Station","company":"Metro","line":["1號線"],"zone":"蓮堤區","lat":35.1158,"lng":129.0411,"radius_m":500,"active":true},
    {"id":"busan_032","name":"草場站","name_en":"Chochiwon Station","company":"Metro","line":["1號線"],"zone":"蓮堤區","lat":35.1208,"lng":129.0464,"radius_m":400,"active":true},
    {"id":"busan_033","name":"蓮堤站","name_en":"Yeondu Station","company":"Metro","line":["1號線"],"zone":"蓮堤區","lat":35.1119,"lng":129.0381,"radius_m":400,"active":true},
    {"id":"busan_034","name":"市廳站","name_en":"City Hall Station Busan","company":"Metro","line":["1號線"],"zone":"蓮堤區","lat":35.1167,"lng":129.0394,"radius_m":500,"active":true},
    {"id":"busan_035","name":"西面站","name_en":"Seomyeon Station","company":"Metro","line":["1號線","2號線"],"zone":"西面","lat":35.1469,"lng":129.0589,"radius_m":800,"active":true},
    {"id":"busan_036","name":"田浦站","name_en":"Jeonpo Station","company":"Metro","line":["2號線"],"zone":"西面","lat":35.1478,"lng":129.0525,"radius_m":500,"active":true},
    {"id":"busan_037","name":"伽倻站","name_en":"Gaya Station","company":"Metro","line":["2號線"],"zone":"海雲台區","lat":35.1581,"lng":129.0628,"radius_m":500,"active":true},
    {"id":"busan_038","name":"金蓮山站","name_en":"Geumnyeonsan Station","company":"Metro","line":["2號線"],"zone":"海雲台區","lat":35.1475,"lng":129.1117,"radius_m":500,"active":true},
    {"id":"busan_039","name":"南湖站","name_en":"Namho Station","company":"Metro","line":["2號線"],"zone":"海雲台區","lat":35.1511,"lng":129.1208,"radius_m":500,"active":true},
    {"id":"busan_040","name":"水營站","name_en":"Suyeong Station","company":"Metro","line":["2號線","3號線"],"zone":"水營區","lat":35.1681,"lng":129.1150,"radius_m":600,"active":true},
    {"id":"busan_041","name":"都堤站","name_en":"Dudi Station","company":"Metro","line":["2號線"],"zone":"海雲台區","lat":35.1564,"lng":129.1383,"radius_m":500,"active":true},
    {"id":"busan_042","name":"海雲台站","name_en":"Haeundae Station","company":"Metro","line":["2號線"],"zone":"海雲台區","lat":35.1586,"lng":129.1536,"radius_m":800,"active":true},
    {"id":"busan_043","name":"松亭站","name_en":"Songjeong Station","company":"JR","line":["東海線"],"zone":"海雲台區","lat":35.1856,"lng":129.1717,"radius_m":500,"active":true},
    {"id":"busan_044","name":"載山站","name_en":"Jangsan Station","company":"Metro","line":["2號線"],"zone":"海雲台區","lat":35.1381,"lng":129.1078,"radius_m":500,"active":true},
    {"id":"busan_045","name":"廣安站","name_en":"Gwangang Station","company":"Metro","line":["2號線"],"zone":"廣安區","lat":35.1661,"lng":129.1275,"radius_m":600,"active":true},
    {"id":"busan_046","name":"多大站","name_en":"Daedeok Station","company":"JR","line":["東海線"],"zone":"海雲台區","lat":35.1928,"lng":129.1636,"radius_m":400,"active":true},
    {"id":"busan_047","name":"MOOP 站","name_en":"Moop Station","company":"Metro","line":["2號線"],"zone":"蓮堤區","lat":35.1303,"lng":129.0556,"radius_m":400,"active":true},
    {"id":"busan_048","name":"忠正路站","name_en":"Jongjeongno Station","company":"Metro","line":["1號線"],"zone":"蓮堤區","lat":35.1250,"lng":129.0497,"radius_m":400,"active":true},
    {"id":"busan_049","name":"西大島站","name_en":"Seodaegu Station","company":"Metro","line":["3號線"],"zone":"西區","lat":35.1653,"lng":129.0803,"radius_m":500,"active":true},
    {"id":"busan_050","name":"美南站","name_en":"Minnam Station","company":"Metro","line":["3號線"],"zone":"西區","lat":35.1589,"lng":129.0753,"radius_m":400,"active":true},
    {"id":"busan_051","name":"萬德站","name_en":"Mandeok Station","company":"Metro","line":["3號線"],"zone":"北區","lat":35.2067,"lng":129.0708,"radius_m":500,"active":true},
    {"id":"busan_052","name":"德川站","name_en":"Deokgok Station","company":"Metro","line":["3號線"],"zone":"北區","lat":35.1989,"lng":129.0678,"radius_m":400,"active":true},
    {"id":"busan_053","name":"龜鳴站","name_en":"Gumeong Station","company":"Metro","line":["3號線"],"zone":"北區","lat":35.2125,"lng":129.0733,"radius_m":400,"active":true},
    {"id":"busan_054","name":"上唐站","name_en":"Sangsangnyeong Station","company":"Metro","line":["3號線"],"zone":"水營區","lat":35.1681,"lng":129.1108,"radius_m":500,"active":true},
    {"id":"busan_055","name":"明智站","name_en":"Myeongjang Station","company":"Metro","line":["3號線"],"zone":"水營區","lat":35.1758,"lng":129.1053,"radius_m":400,"active":true},
    {"id":"busan_056","name":"巨堤站","name_en":"Gudum Station","company":"Metro","line":["3號線"],"zone":"水營區","lat":35.1853,"lng":129.0978,"radius_m":500,"active":true},
    {"id":"busan_057","name":"水泳場站","name_en":"Suyeong Beach Station","company":"Metro","line":["2號線"],"zone":"海雲台區","lat":35.1511,"lng":129.1208,"radius_m":400,"active":true},
    {"id":"busan_058","name":"松島海水浴場站","name_en":"Songdo Beach Station","company":"海岸電鐵","line":["海岸電鐵"],"zone":"西區","lat":35.0853,"lng":129.0217,"radius_m":400,"active":true},
    {"id":"busan_059","name":"南區廳站","name_en":"Nam-gu Office Station","company":"Metro","line":["1號線"],"zone":"南區","lat":35.1011,"lng":129.0056,"radius_m":400,"active":true},
    {"id":"busan_060","name":"長神站","name_en":"Jinjeop Station","company":"JR","line":["東海線"],"zone":"海雲台區","lat":35.1958,"lng":129.1708,"radius_m":400,"active":true}
  ]
}
