{
  "region": "fukuoka",
  "updated": "2026-06-29",
  "stations": [
    {"id":"fukuoka_001","name":"博多站","name_en":"Hakata Station","company":"JR九州","line":["JR鹿兒島線","JR新幹線","Metro機場線","JR篠栗線"],"zone":"博多","lat":33.5903,"lng":130.4206,"radius_m":800,"active":true},
    {"id":"fukuoka_002","name":"祇園站","name_en":"Gion Station","company":"Metro","line":["Metro機場線"],"zone":"祇園","lat":33.5950,"lng":130.4111,"radius_m":400,"active":true},
    {"id":"fukuoka_003","name":"中洲川端站","name_en":"Nakasu-Kawabata Station","company":"Metro","line":["Metro機場線","Metro箱崎線"],"zone":"中洲","lat":33.5958,"lng":130.4053,"radius_m":400,"active":true},
    {"id":"fukuoka_004","name":"天神站","name_en":"Tenjin Station","company":"Metro","line":["Metro機場線","Metro箱崎線"],"zone":"天神","lat":33.5933,"lng":130.3967,"radius_m":500,"active":true},
    {"id":"fukuoka_005","name":"天神南站","name_en":"Tenjin-Minami Station","company":"Metro","line":["Metro七隈線"],"zone":"天神","lat":33.5900,"lng":130.3961,"radius_m":400,"active":true},
    {"id":"fukuoka_006","name":"南天神站","name_en":"Minami-Tenjin Station","company":"Metro","line":["Metro七隈線"],"zone":"天神","lat":33.5844,"lng":130.3947,"radius_m":400,"active":true},
    {"id":"fukuoka_007","name":"渡邊通站","name_en":"Watanabe-dori Station","company":"Metro","line":["Metro七隈線"],"zone":"渡邊通","lat":33.5781,"lng":130.3961,"radius_m":400,"active":true},
    {"id":"fukuoka_008","name":"藥院大通站","name_en":"Yakuin-Dori Station","company":"Metro","line":["Metro七隈線"],"zone":"藥院","lat":33.5731,"lng":130.3978,"radius_m":400,"active":true},
    {"id":"fukuoka_009","name":"藥院站","name_en":"Yakuin Station","company":"Metro","line":["Metro七隈線"],"zone":"藥院","lat":33.5692,"lng":130.3994,"radius_m":400,"active":true},
    {"id":"fukuoka_010","name":"平尾站","name_en":"Hirao Station","company":"Metro","line":["Metro七隈線"],"zone":"平尾","lat":33.5639,"lng":130.4006,"radius_m":400,"active":true},
    {"id":"fukuoka_011","name":"高宮站","name_en":"Takamiya Station","company":"Metro","line":["Metro七隈線"],"zone":"高宮","lat":33.5589,"lng":130.4025,"radius_m":400,"active":true},
    {"id":"fukuoka_012","name":"大橋站","name_en":"Ohashi Station","company":"Metro","line":["Metro七隈線"],"zone":"大橋","lat":33.5533,"lng":130.4053,"radius_m":500,"active":true},
    {"id":"fukuoka_013","name":"住吉站","name_en":"Sumiyoshi Station","company":"Metro","line":["Metro箱崎線"],"zone":"住吉","lat":33.6017,"lng":130.3931,"radius_m":400,"active":true},
    {"id":"fukuoka_014","name":"吳服町站","name_en":"Gofukumachi Station","company":"Metro","line":["Metro箱崎線"],"zone":"吳服町","lat":33.6044,"lng":130.3897,"radius_m":400,"active":true},
    {"id":"fukuoka_015","name":"千代縣廳通站","name_en":"Chiyogaiden-Kitaguchi Station","company":"Metro","line":["Metro箱崎線"],"zone":"千代","lat":33.6075,"lng":130.3861,"radius_m":400,"active":true},
    {"id":"fukuoka_016","name":"馬出九大病院前站","name_en":"Maidashi-Kyudai Byoin-mae Station","company":"Metro","line":["Metro箱崎線"],"zone":"馬出","lat":33.6117,"lng":130.3825,"radius_m":400,"active":true},
    {"id":"fukuoka_017","name":"箱崎宮前站","name_en":"Hakozaki-Miyamae Station","company":"Metro","line":["Metro箱崎線"],"zone":"箱崎","lat":33.6158,"lng":130.3794,"radius_m":400,"active":true},
    {"id":"fukuoka_018","name":"箱崎站","name_en":"Hakozaki Station","company":"Metro","line":["Metro箱崎線"],"zone":"箱崎","lat":33.6200,"lng":130.3758,"radius_m":500,"active":true},
    {"id":"fukuoka_019","name":"築約站","name_en":"Chikushino Station","company":"JR九州","line":["JR鹿兒島線"],"zone":"築紫野","lat":33.5011,"lng":130.5131,"radius_m":500,"active":true},
    {"id":"fukuoka_020","name":"春日站","name_en":"Kasuga Station","company":"JR九州","line":["JR鹿兒島線"],"zone":"春日","lat":33.5356,"lng":130.4783,"radius_m":500,"active":true},
    {"id":"fukuoka_021","name":"南荒戶站","name_en":"Minami-Arato Station","company":"Metro","line":["Metro七隈線"],"zone":"南公園","lat":33.5778,"lng":130.3989,"radius_m":400,"active":true},
    {"id":"fukuoka_022","name":"荒戶站","name_en":"Arato Station","company":"Metro","line":["Metro七隈線"],"zone":"荒戶","lat":33.5817,"lng":130.4000,"radius_m":400,"active":true},
    {"id":"fukuoka_023","name":"野芥站","name_en":"Noke Station","company":"Metro","line":["Metro七隈線"],"zone":"野芥","lat":33.5483,"lng":130.4089,"radius_m":400,"active":true},
    {"id":"fukuoka_024","name":"梅林站","name_en":"Ume no Hayashi Station","company":"Metro","line":["Metro七隈線"],"zone":"梅林","lat":33.5428,"lng":130.4119,"radius_m":400,"active":true},
    {"id":"fukuoka_025","name":"福大前站","name_en":"Fukuoka-Daigaku-Mae Station","company":"Metro","line":["Metro七隈線"],"zone":"七隈","lat":33.5364,"lng":130.4147,"radius_m":500,"active":true},
    {"id":"fukuoka_026","name":"六本鬆站","name_en":"Ropponmatsu Station","company":"Metro","line":["Metro七隈線"],"zone":"六本鬆","lat":33.5817,"lng":130.3931,"radius_m":500,"active":true},
    {"id":"fukuoka_027","name":"別府站","name_en":"Befu Station","company":"Metro","line":["Metro七隈線"],"zone":"別府","lat":33.5764,"lng":130.3914,"radius_m":400,"active":true},
    {"id":"fukuoka_028","name":"賀茂站","name_en":"Kamo Station","company":"Metro","line":["Metro七隈線"],"zone":"賀茂","lat":33.5633,"lng":130.3894,"radius_m":400,"active":true},
    {"id":"fukuoka_029","name":"次郎丸站","name_en":"Jiro Maru Station","company":"Metro","line":["Metro七隈線"],"zone":"次郎丸","lat":33.5583,"lng":130.3869,"radius_m":400,"active":true},
    {"id":"fukuoka_030","name":"賀茂之尾站","name_en":"Kamono-O Station","company":"Metro","line":["Metro七隈線"],"zone":"賀茂之尾","lat":33.5531,"lng":130.3842,"radius_m":400,"active":true},
    {"id":"fukuoka_031","name":"姪濱站","name_en":"Meihama Station","company":"JR九州","line":["JR鹿兒島線"],"zone":"西區","lat":33.5936,"lng":130.2819,"radius_m":600,"active":true},
    {"id":"fukuoka_032","name":"下山門站","name_en":"Shimoyamato Station","company":"JR九州","line":["JR鹿兒島線"],"zone":"西區","lat":33.5978,"lng":130.2583,"radius_m":400,"active":true},
    {"id":"fukuoka_033","name":"今宿站","name_en":"Imajuku Station","company":"JR九州","line":["JR鹿兒島線"],"zone":"西區","lat":33.6036,"lng":130.2331,"radius_m":500,"active":true},
    {"id":"fukuoka_034","name":"九大學研都市站","name_en":"Kyushu-Daigaku-Mac Station","company":"JR九州","line":["JR鹿兒島線"],"zone":"西區","lat":33.6081,"lng":130.2164,"radius_m":500,"active":true},
    {"id":"fukuoka_035","name":"周船寺站","name_en":"Sufukusji Station","company":"JR九州","line":["JR鹿兒島線"],"zone":"西區","lat":33.6136,"lng":130.2011,"radius_m":400,"active":true},
    {"id":"fukuoka_036","name":"波多羅站","name_en":"Hata no Taira Station","company":"JR九州","line":["JR鹿兒島線"],"zone":"西區","lat":33.6186,"lng":130.1861,"radius_m":400,"active":true},
    {"id":"fukuoka_037","name":"武藏塚站","name_en":"Musashizuka Station","company":"JR九州","line":["JR鹿兒島線"],"zone":"東區","lat":33.6411,"lng":130.4711,"radius_m":400,"active":true},
    {"id":"fukuoka_038","name":"光岡站","name_en":"Hikarioka Station","company":"JR九州","line":["JR鹿兒島線"],"zone":"東區","lat":33.6503,"lng":130.4894,"radius_m":400,"active":true},
    {"id":"fukuoka_039","name":"折尾站","name_en":"Orio Station","company":"JR九州","line":["JR鹿兒島線","JR筑豐線"],"zone":"八幡西區","lat":33.6686,"lng":130.4836,"radius_m":600,"active":true},
    {"id":"fukuoka_040","name":"黑崎站","name_en":"Kurosaki Station","company":"JR九州","line":["JR鹿兒島線"],"zone":"八幡西區","lat":33.6844,"lng":130.4706,"radius_m":600,"active":true},
    {"id":"fukuoka_041","name":"小倉站","name_en":"Kokura Station","company":"JR九州","line":["JR鹿兒島線","JR日豐線","JR新幹線"],"zone":"小倉","lat":33.8844,"lng":130.8800,"radius_m":800,"active":true},
    {"id":"fukuoka_042","name":"門司港站","name_en":"Mojiko Station","company":"JR九州","line":["JR鹿兒島線"],"zone":"門司區","lat":33.9475,"lng":130.9558,"radius_m":500,"active":true},
    {"id":"fukuoka_043","name":"久留米站","name_en":"Kurume Station","company":"JR九州","line":["JR鹿兒島線","JR久大線","JR筑豐線"],"zone":"久留米","lat":33.3169,"lng":130.5197,"radius_m":700,"active":true},
    {"id":"fukuoka_044","name":"鳥棲站","name_en":"Tosu Station","company":"JR九州","line":["JR鹿兒島線","JR新幹線"],"zone":"鳥棲","lat":33.3739,"lng":130.5028,"radius_m":500,"active":true},
    {"id":"fukuoka_045","name":"基山站","name_en":"Kiyama Station","company":"JR九州","line":["JR鹿兒島線"],"zone":"基山","lat":33.3931,"lng":130.4925,"radius_m":400,"active":true},
    {"id":"fukuoka_046","name":"小郡站","name_en":"Ogoto Station","company":"JR九州","line":["JR鹿兒島線"],"zone":"小郡","lat":33.3967,"lng":130.5567,"radius_m":500,"active":true},
    {"id":"fukuoka_047","name":"二日市站","name_en":"Fukaoka Station","company":"JR九州","line":["JR鹿兒島線"],"zone":"筑紫野","lat":33.5086,"lng":130.5306,"radius_m":500,"active":true},
    {"id":"fukuoka_048","name":"天拜山站","name_en":"Tambaizan Station","company":"JR九州","line":["JR鹿兒島線"],"zone":"筑紫野","lat":33.5164,"lng":130.5378,"radius_m":400,"active":true},
    {"id":"fukuoka_049","name":"田主丸站","name_en":"Tanushimaru Station","company":"JR九州","line":["JR久大線"],"zone":"久留米","lat":33.2869,"lng":130.5500,"radius_m":400,"active":true},
    {"id":"fukuoka_050","name":"筑後吉井站","name_en":"Chikugo Yoshii Station","company":"JR九州","line":["JR久大線"],"zone":"浮羽","lat":33.2419,"lng":130.5811,"radius_m":400,"active":true}
  ]
}
